{
  "buildings": [
    {
      "name": "AGSM",
      "id": "K-G27",
      "lat": -33.91833,
      "long": 151.2357
    },
    {
      "name": "Ainsworth Building",
      "id": "K-J17",
      "lat": -33.91835,
      "long": 151.23131
    },
    {
      "name": "Anita B. Lawrence Centre",
      "id": "K-H13",
      "lat": -33.91785,
      "long": 151.230057
    },
    {
      "name": "Biological Sciences (North)",
      "id": "K-D26",
      "lat": -33.91734,
      "long": 151.235403
    },
    {
      "name": "Blockhouse",
      "id": "K-G6",
      "lat": -33.91695,
      "long": 151.226826
    },
    {
      "name": "Civil Engineering Building",
      "id": "K-H20",
      "lat": -33.91821,
      "long": 151.23275
    },
    {
      "name": "Colombo Building",
      "id": "K-B16",
      "lat": -33.915902,
      "long": 151.23136
    },
    {
      "name": "Electrical Engineering Bldg",
      "id": "K-G17",
      "lat": -33.91779,
      "long": 151.23165
    },
    {
      "name": "Goldstein Hall",
      "id": "K-D16",
      "lat": -33.91657,
      "long": 151.23165
    },
    {
      "name": "John Goodsell Building",
      "id": "K-F20",
      "lat": -33.917485,
      "long": 151.23265
    },
    {
      "name": "John Niland Scientia",
      "id": "K-G19",
      "lat": -33.91795,
      "long": 151.23239
    },
    {
      "name": "June Griffith Building",
      "id": "K-F10",
      "lat": -33.91721,
      "long": 151.22881
    },
    {
      "name": "Keith Burrows Theatre",
      "id": "K-J14",
      "lat": -33.91815,
      "long": 151.23012
    },
    {
      "name": "Law Building",
      "id": "K-F8",
      "lat": -33.91699,
      "long": 151.227791
    },
    {
      "name": "Library Stage 2",
      "id": "K-F21",
      "lat": -33.917528,
      "long": 151.23348
    },
    {
      "name": "Mathews Building",
      "id": "K-F23",
      "lat": -33.9177,
      "long": 151.23424
    },
    {
      "name": "Mathews Theatres",
      "id": "K-D23",
      "lat": -33.91728,
      "long": 151.23403
    },
    {
      "name": "Morven Brown Building",
      "id": "K-C20",
      "lat": -33.91675,
      "long": 151.232828
    },
    {
      "name": "Newton Building",
      "id": "K-J12",
      "lat": -33.91823,
      "long": 151.22918
    },
    {
      "name": "Old Main Building",
      "id": "K-K15",
      "lat": -33.918489,
      "long": 151.230731
    },
    {
      "name": "Patricia O'Shane Building",
      "id": "K-E19",
      "lat": -33.9171205,
      "long": 151.232465
    },
    {
      "name": "Physics Theatre",
      "id": "K-K14",
      "lat": -33.91851,
      "long": 151.23007
    },
    {
      "name": "Quadrangle Building",
      "id": "K-E15",
      "lat": -33.91725,
      "long": 151.231
    },
    {
      "name": "Rex Vowels Theatre",
      "id": "K-F17",
      "lat": -33.91752,
      "long": 151.231493
    },
    {
      "name": "Rupert Myers Building",
      "id": "K-M15",
      "lat": -33.919525,
      "long": 151.230552
    },
    {
      "name": "Science & Engineering Building",
      "id": "K-E8",
      "lat": -33.9165,
      "long": 151.227689
    },
    {
      "name": "Science Theatre",
      "id": "K-F13",
      "lat": -33.917204,
      "long": 151.229831
    },
    {
      "name": "Sir John Clancy Auditorium",
      "id": "K-C24",
      "lat": -33.91696,
      "long": 151.234542
    },
    {
      "name": "Squarehouse",
      "id": "K-E4",
      "lat": -33.916185,
      "long": 151.226284
    },
    {
      "name": "Tyree Energy Technology",
      "id": "K-H6",
      "lat": -33.917721,
      "long": 151.226897
    },
    {
      "name": "UNSW Business School",
      "id": "K-E12",
      "lat": -33.91675,
      "long": 151.229611
    },
    {
      "name": "Vallentine Annexe",
      "id": "K-H22",
      "lat": -33.918315,
      "long": 151.233301
    },
    {
      "name": "Webster Building",
      "id": "K-G14",
      "lat": -33.91755,
      "long": 151.23013
    },
    {
      "name": "Webster Theatres",
      "id": "K-G15",
      "lat": -33.917435,
      "long": 151.230668
    }
  ]
}
